stop_id,stop_code,stop_name,stop_desc,stop_lat,stop_lon,zone_id,stop_url,location_type,platform_code
5_01,,岡山駅,,34.665145,133.918426,5_01,,0,
10_01,,岡山駅前,,34.665679,133.920978,10_01,,0,
25_01,,ＮＴＴ岡山前,,34.663204,133.926374,25_01,,0,
25_02,,ＮＴＴ岡山前,,34.663155,133.926067,25_02,,0,
50_01,,天満屋,,34.661688,133.928218,50_01,,0,
110_01,,イオンモール岡山前・源吉兆庵本社前,,34.661926,133.918947,110_01,,0,
110_02,,イオンモール岡山前・源吉兆庵本社前,,34.661379,133.919252,110_02,,0,
115_01,,山陽新聞社前,,34.657911,133.919139,115_01,,0,
115_02,,山陽新聞社前,,34.657627,133.919457,115_02,,0,
120_01,,岡山市役所前,,34.655512,133.918637,120_01,,0,
120_02,,岡山市役所前,,34.655228,133.918852,120_02,,0,
125_01,,水道局前,,34.653829,133.917567,125_01,,0,
125_02,,水道局前,,34.653485,133.917734,125_02,,0,
130_01,,精神科医療センター西,,34.651393,133.914864,130_01,,0,
130_02,,精神科医療センター西,,34.651117,133.914955,130_02,,0,
135_01,,東古松二丁目,,34.650172,133.913555,135_01,,0,
135_02,,東古松二丁目,,34.649996,133.913514,135_02,,0,
140_01,,大元駅前,,34.647717,133.911261,140_01,,0,
140_02,,大元駅前,,34.647242,133.911395,140_02,,0,
145_01,,西古松,,34.645651,133.908697,145_01,,0,
145_02,,西古松,,34.645587,133.908348,145_02,,0,
150_01,,大元一丁目,,34.644564,133.904725,150_01,,0,
150_02,,大元一丁目,,34.644025,133.904800,150_02,,0,
155_01,,野崎,,34.643274,133.904721,155_01,,0,
155_02,,野崎,,34.642412,133.904846,155_02,,0,
160_01,,下中野北,,34.638588,133.904269,160_01,,0,
160_02,,下中野北,,34.638442,133.904349,160_02,,0,
165_01,,下中野,,34.636297,133.901670,165_01,,0,
165_02,,下中野,,34.636176,133.901925,165_02,,0,
170_01,,両備テクノ前,,34.633045,133.898046,170_01,,0,
170_02,,両備テクノ前,,34.633631,133.899067,170_02,,0,
175_01,,大角橋,,34.631848,133.896646,175_01,,0,
175_02,,大角橋,,34.631490,133.896608,175_02,,0,
180_01,,西市,,34.630528,133.895171,180_01,,0,
180_02,,西市,,34.630281,133.895235,180_02,,0,
185_01,,米倉,,34.627170,133.891365,185_01,,0,
185_02,,米倉,,34.627300,133.891624,185_02,,0,
190_01,,相生橋,,34.625759,133.886132,190_01,,0,
190_02,,相生橋,,34.625677,133.886059,190_02,,0,
195_01,,大福中,,34.623889,133.882564,195_01,,0,
195_02,,大福中,,34.623492,133.881964,195_02,,0,
200_01,,大福,,34.621892,133.878962,200_01,,0,
200_02,,大福,,34.621998,133.879287,200_02,,0,
205_01,,荒田,,34.619300,133.873233,205_01,,0,
205_02,,荒田,,34.619051,133.872659,205_02,,0,
210_01,,荒田西,,34.617972,133.869180,210_01,,0,
210_02,,荒田西,,34.617938,133.869274,210_02,,0,
215_01,,和田,,34.616650,133.865113,215_01,,0,
215_02,,和田,,34.616777,133.865768,215_02,,0,
220_01,,汗入,,34.615011,133.861013,220_01,,0,
220_02,,汗入,,34.615100,133.861353,220_02,,0,
255_01,,大雲寺前,,34.656415,133.924659,255_01,,0,
255_02,,大雲寺前,,34.656154,133.925434,255_02,,0,
505_01,,新西大寺町筋,,34.658824,133.926178,505_01,,0,
505_02,,新西大寺町筋,,34.659122,133.926472,505_02,,0,
510_01,,大学病院筋,,34.656404,133.922047,510_01,,0,
510_02,,大学病院筋,,34.656146,133.921989,510_02,,0,
515_01,,大供,,34.656386,133.917763,515_01,,0,
515_02,,大供,,34.656130,133.918423,515_02,,0,
520_01,,厚生町商工会議所前,,34.656289,133.913839,520_01,,0,
520_02,,厚生町商工会議所前,,34.655993,133.913410,520_02,,0,
523_02,,光生病院前,,34.655989,133.911218,523_02,,0,
525_01,,大供新屋敷,,34.656123,133.908630,525_01,,0,
525_02,,大供新屋敷,,34.655927,133.907842,525_02,,0,
530_01,,野田東,,34.655388,133.903916,530_01,,0,
530_02,,野田東,,34.655229,133.904053,530_02,,0,
535_01,,備前野田,,34.654305,133.900530,535_01,,0,
535_02,,備前野田,,34.654427,133.901474,535_02,,0,
540_01,,岡山ドーム入口,,34.652711,133.895583,540_01,,0,
540_02,,岡山ドーム入口,,34.652496,133.895557,540_02,,0,
545_01,,大野辻,,34.650786,133.891249,545_01,,0,
545_02,,大野辻,,34.650137,133.890321,545_02,,0,
550_01,,北長瀬駅前,,34.652690,133.885507,550_01,,0,
550_02,,北長瀬駅前,,34.652483,133.885265,550_02,,0,
555_01,,中仙道,,34.648787,133.884694,555_01,,0,
555_02,,中仙道,,34.648646,133.884764,555_02,,0,
560_01,,西長瀬,,34.648390,133.879882,560_01,,0,
560_02,,西長瀬,,34.648244,133.879775,560_02,,0,
565_01,,備前白石,,34.648096,133.875427,565_01,,0,
565_02,,備前白石,,34.648039,133.876141,565_02,,0,
570_01,,鉄工センター前,,34.646458,133.870034,570_01,,0,
570_02,,鉄工センター前,,34.646404,133.870155,570_02,,0,
575_01,,延友,,34.644710,133.864447,575_01,,0,
575_02,,延友,,34.644320,133.863424,575_02,,0,
580_01,,平野,,34.646177,133.858693,580_01,,0,
580_02,,平野,,34.646117,133.858205,580_02,,0,
585_01,,庭瀬駅通,,34.646258,133.854133,585_01,,0,
585_02,,庭瀬駅通,,34.646205,133.852677,585_02,,0,
590_01,,庭瀬本町,,34.646161,133.847326,590_01,,0,
590_02,,庭瀬本町,,34.646143,133.848750,590_02,,0,
595_01,,撫川,,34.644206,133.840405,595_01,,0,
595_02,,撫川,,34.644041,133.840215,595_02,,0,
600_01,,下撫川,,34.643257,133.837377,600_01,,0,
600_02,,下撫川,,34.643266,133.837718,600_02,,0,
605_01,,瀬戸大橋温泉,,34.641799,133.832721,605_01,,0,
605_02,,瀬戸大橋温泉,,34.641543,133.832270,605_02,,0,
610_01,,備中庄,,34.640450,133.828534,610_01,,0,
610_02,,備中庄,,34.640093,133.827783,610_02,,0,
615_01,,清心学園口,,34.637398,133.819050,615_01,,0,
615_02,,清心学園口,,34.637145,133.818521,615_02,,0,
620_01,,松島北ノ口,,34.634920,133.813557,620_01,,0,
620_02,,松島北ノ口,,34.634064,133.812291,620_02,,0,
625_01,,川崎医大前,,34.632854,133.809995,625_01,,0,
625_02,,川崎医大前,,34.632453,133.809453,625_02,,0,
630_01,,松島西ノ口,,34.629844,133.806910,630_01,,0,
630_02,,松島西ノ口,,34.629826,133.807066,630_02,,0,
645_01,,中庄駅,,34.626638,133.808065,645_01,,0,
1505_05,,倉敷駅前,,34.601292,133.766060,1505_05,,0,5
1505_06,,倉敷駅前,,34.601118,133.766208,1505_06,,0,6
1505_07,,倉敷駅前,,34.601047,133.766275,1505_07,,0,7
1510_01,,昭和町,,34.603508,133.770456,1510_01,,0,
1510_02,,昭和町,,34.603188,133.769788,1510_02,,0,
1515_01,,南幸町しげい病院前,,34.604015,133.772607,1515_01,,0,
1515_02,,南幸町しげい病院前,,34.603680,133.772696,1515_02,,0,
1520_01,,倉敷郵便局前,,34.600905,133.773280,1520_01,,0,
1520_02,,倉敷郵便局前,,34.600953,133.773184,1520_02,,0,
1525_01,,倉敷中央病院前,,34.600980,133.775222,1525_01,,0,
1525_02,,倉敷中央病院前,,34.601037,133.774611,1525_02,,0,
1530_01,,備中県民局南,,34.600644,133.777222,1530_01,,0,
1530_02,,備中県民局南,,34.600575,133.777315,1530_02,,0,
1535_01,,東町,,34.597572,133.777716,1535_01,,0,
1535_02,,東町,,34.596915,133.777792,1535_02,,0,
1540_01,,羽島,,34.596361,133.780174,1540_01,,0,
1540_02,,羽島,,34.596392,133.780016,1540_02,,0,
1545_01,,日間,,34.596341,133.786586,1545_01,,0,
1545_02,,日間,,34.596191,133.788180,1545_02,,0,
1570_01,,元町,,34.599278,133.767782,1570_01,,0,
1570_02,,元町,,34.598617,133.768491,1570_02,,0,
1575_01,,大原美術館前,,34.595511,133.769383,1575_01,,0,
1575_02,,大原美術館前,,34.595250,133.769595,1575_02,,0,
1580_01,,中央二丁目・倉敷芸文館,,34.593550,133.769710,1580_01,,0,
1580_02,,中央二丁目・倉敷芸文館,,34.592967,133.770169,1580_02,,0,
1585_01,,倉商東,,34.588794,133.771116,1585_01,,0,
1585_02,,倉商東,,34.588509,133.771234,1585_02,,0,
1590_01,,倉敷市役所,,34.585709,133.770628,1590_01,,0,
1590_02,,倉敷市役所,,34.585210,133.770671,1590_02,,0,
1595_01,,総合市場前,,34.581882,133.770008,1595_01,,0,
1595_02,,総合市場前,,34.581871,133.770142,1595_02,,0,
1600_02,,ゆめタウン倉敷前,,34.578559,133.769689,1600_02,,0,
1605_01,,笹沖,,34.575520,133.769195,1605_01,,0,
1605_02,,笹沖,,34.575167,133.769322,1605_02,,0,
1615_01,,葦高小学校東,,34.572481,133.768882,1615_01,,0,
1615_02,,葦高小学校東,,34.571677,133.768973,1615_02,,0,
1620_01,,倉敷南高校入口,,34.568912,133.768522,1620_01,,0,
1620_02,,倉敷南高校入口,,34.568525,133.768656,1620_02,,0,
1625_01,,吉岡,,34.565835,133.768297,1625_01,,0,
1625_02,,吉岡,,34.565908,133.768442,1625_02,,0,
1630_01,,浦田,,34.559693,133.768435,1630_01,,0,
1630_02,,浦田,,34.559338,133.768804,1630_02,,0,
1635_01,,二福小古城池高前,,34.547251,133.763866,1635_01,,0,
1635_02,,二福小古城池高前,,34.547538,133.763641,1635_02,,0,
1640_01,,観音堂,,34.540893,133.757670,1640_01,,0,
1640_02,,観音堂,,34.540791,133.757834,1640_02,,0,
1655_01,,倉商前,,34.589094,133.767782,1655_01,,0,
1655_02,,倉商前,,34.589094,133.768858,1655_02,,0,
1660_01,,倉敷成人病センター前,,34.588907,133.765180,1660_01,,0,
1660_02,,倉敷成人病センター前,,34.588761,133.765159,1660_02,,0,
1665_01,,商工会館前,,34.588869,133.764233,1665_01,,0,
1665_02,,商工会館前,,34.588746,133.764338,1665_02,,0,
1670_01,,西中,,34.584904,133.760991,1670_01,,0,
1670_02,,西中,,34.584894,133.761044,1670_02,,0,
1675_01,,大高,,34.579321,133.757580,1675_01,,0,
1675_02,,大高,,34.578781,133.757273,1675_02,,0,
1680_01,,旭化成団地口,,34.572628,133.753150,1680_01,,0,
1680_02,,旭化成団地口,,34.572744,133.753311,1680_02,,0,
1685_01,,福井,,34.569608,133.751133,1685_01,,0,
1685_02,,福井,,34.568349,133.750353,1685_02,,0,
1690_01,,倉敷中央高校南,,34.563179,133.749700,1690_01,,0,
1690_02,,倉敷中央高校南,,34.563386,133.749741,1690_02,,0,
1700_01,,帯江,,34.589271,133.797453,1700_01,,0,
1700_02,,帯江,,34.589194,133.797691,1700_02,,0,
1735_01,,児島ボートレース場正門前,,34.450831,133.808458,1735_01,,0,
1740_01,,倉敷シティ病院,,34.452062,133.808254,1740_01,,0,
1745_01,,ＪＲ児島駅南,,34.463636,133.808278,1745_01,,0,
1750_01,,ＪＲ児島駅,,34.462879,133.807012,1750_01,,0,1
1750_02,,ＪＲ児島駅,,34.462833,133.807232,1750_02,,0,2
1755_01,,天満屋ハピータウン前,,34.466080,133.803681,1755_01,,0,
1755_02,,天満屋ハピータウン前,,34.465894,133.804201,1755_02,,0,
1760_01,,児島市民交流センター前,,34.467540,133.802699,1760_01,,0,
1765_01,,大正橋,,34.469707,133.805027,1765_01,,0,
1765_02,,大正橋,,34.469804,133.804952,1765_02,,0,
1770_01,,児島武道館前,,34.470273,133.808915,1770_01,,0,
1770_02,,児島武道館前,,34.470291,133.809070,1770_02,,0,
1775_01,,大谷口,,34.469598,133.813683,1775_01,,0,
1775_02,,大谷口,,34.469687,133.813618,1775_02,,0,
1780_01,,萱刈,,34.469829,133.817800,1780_01,,0,
1780_02,,萱刈,,34.469954,133.818064,1780_02,,0,
1785_01,,和井田,,34.472321,133.820966,1785_01,,0,
1785_02,,和井田,,34.472316,133.820890,1785_02,,0,
1790_01,,常盤橋,,34.474246,133.823890,1790_01,,0,
1790_02,,常盤橋,,34.474232,133.823733,1790_02,,0,
1795_01,,下之町,,34.475026,133.825873,1795_01,,0,
1795_02,,下之町,,34.474838,133.825508,1795_02,,0,
1800_01,,堀江,,34.476416,133.828455,1800_01,,0,
1800_02,,堀江,,34.476430,133.828342,1800_02,,0,
1805_01,,琴浦高等支援学校前,,34.476934,133.830941,1805_01,,0,
1805_02,,琴浦高等支援学校前,,34.477034,133.831833,1805_02,,0,
1810_01,,西明石,,34.477078,133.833070,1810_01,,0,
1810_02,,西明石,,34.477113,133.832851,1810_02,,0,
1815_01,,明石,,34.476501,133.837322,1815_01,,0,
1815_02,,明石,,34.476428,133.837800,1815_02,,0,
1820_01,,田の口岡,,34.475450,133.841917,1820_01,,0,
1820_02,,田の口岡,,34.475439,133.842129,1820_02,,0,
1825_01,,由加登山口,,34.474827,133.844631,1825_01,,0,
1825_02,,由加登山口,,34.474797,133.844855,1825_02,,0,
1830_01,,田の口浜,,34.471334,133.847106,1830_01,,0,
1830_02,,田の口浜,,34.471534,133.847061,1830_02,,0,
1835_01,,田の口五丁目,,34.470547,133.850263,1835_01,,0,
1835_02,,田の口五丁目,,34.470228,133.851250,1835_02,,0,
1840_01,,唐琴の浦,,34.469824,133.857138,1840_01,,0,
1840_02,,唐琴の浦,,34.469896,133.857749,1840_02,,0,
1845_01,,唐琴警鐘台,,34.469756,133.859960,1845_01,,0,
1845_02,,唐琴警鐘台,,34.469839,133.859049,1845_02,,0,
1850_01,,唐琴町,,34.469489,133.863270,1850_01,,0,
1850_02,,唐琴町,,34.469686,133.862729,1850_02,,0,
1855_01,,東唐琴,,34.468407,133.865528,1855_01,,0,
1855_02,,東唐琴,,34.468241,133.865846,1855_02,,0,
1860_01,,琴浦園口,,34.467595,133.867215,1860_01,,0,
1860_02,,琴浦園口,,34.467587,133.867315,1860_02,,0,
1865_01,,十九番札所前,,34.466082,133.869314,1865_01,,0,
1865_02,,十九番札所前,,34.466018,133.869481,1865_02,,0,
1870_01,,王子ヶ岳登山口,,34.460432,133.876160,1870_01,,0,
1870_02,,王子ヶ岳登山口,,34.460562,133.876126,1870_02,,0,
1875_01,,ホールサムインせとうち,,34.456949,133.880020,1875_01,,0,
1875_02,,ホールサムインせとうち,,34.457185,133.879866,1875_02,,0,
1880_01,,渋川三丁目,,34.457181,133.898591,1880_01,,0,
1880_02,,渋川三丁目,,34.457241,133.899149,1880_02,,0,
1885_01,,渋川,,34.456538,133.903018,1885_01,,0,
1885_02,,渋川,,34.456600,133.903017,1885_02,,0,
1890_01,,渋川一丁目,,34.457153,133.906466,1890_01,,0,
1890_02,,渋川一丁目,,34.457316,133.907206,1890_02,,0,
1895_01,,梅木橋,,34.457796,133.910269,1895_01,,0,
1895_02,,梅木橋,,34.457838,133.910201,1895_02,,0,
1900_01,,日比精煉西門前,,34.457376,133.911983,1900_01,,0,
1900_02,,日比精煉西門前,,34.457066,133.912959,1900_02,,0,
1905_01,,日比精煉所前,,34.456182,133.917329,1905_01,,0,
1905_02,,日比精煉所前,,34.456221,133.916826,1905_02,,0,
1910_01,,日比,,34.458272,133.922526,1910_01,,0,
1910_02,,日比,,34.458068,133.922260,1910_02,,0,
1915_01,,羽根崎町,,34.461648,133.922091,1915_01,,0,
1915_02,,羽根崎町,,34.461024,133.922354,1915_02,,0,
1920_01,,和田三丁目,,34.466287,133.921334,1920_01,,0,
1920_02,,和田三丁目,,34.465825,133.921285,1920_02,,0,
1925_01,,和田社宅前,,34.468948,133.922162,1925_01,,0,
1925_02,,和田社宅前,,34.469322,133.922213,1925_02,,0,
1930_01,,和田一丁目,,34.470901,133.926512,1930_01,,0,
1930_02,,和田一丁目,,34.470971,133.926027,1930_02,,0,
1935_01,,日ノ田門前,,34.471773,133.933221,1935_01,,0,
1935_02,,日ノ田門前,,34.471805,133.933021,1935_02,,0,
1940_01,,三井Ｅ＆Ｓホールディングス前,,34.475614,133.932488,1940_01,,0,
1940_02,,三井Ｅ＆Ｓホールディングス前,,34.475442,133.932491,1940_02,,0,
1945_01,,玉四丁目,,34.478330,133.931182,1945_01,,0,
1945_02,,玉四丁目,,34.477583,133.931701,1945_02,,0,
1950_01,,市民会館前,,34.481637,133.929888,1950_01,,0,
1950_02,,市民会館前,,34.481619,133.929801,1950_02,,0,
1955_01,,玉六丁目,,34.483373,133.931656,1955_01,,0,
1955_02,,玉六丁目,,34.483200,133.931594,1955_02,,0,
1960_01,,商工高校前,,34.485726,133.932099,1960_01,,0,
1960_02,,商工高校前,,34.485624,133.931882,1960_02,,0,
1965_01,,天馬町,,34.489458,133.939476,1965_01,,0,
1965_02,,天馬町,,34.489158,133.939368,1965_02,,0,
1970_01,,ＮＴＴ玉野前,,34.492225,133.940847,1970_01,,0,
1970_02,,ＮＴＴ玉野前,,34.492177,133.940678,1970_02,,0,
1975_01,,玉野市役所入口,,34.493424,133.944660,1975_01,,0,
1975_02,,玉野市役所入口,,34.493601,133.945615,1975_02,,0,
1980_01,,旭橋通り,,34.493603,133.949343,1980_01,,0,
1980_02,,旭橋通り,,34.493749,133.949440,1980_02,,0,
1985_01,,宇野駅前,,34.494074,133.953654,1985_01,,0,
3005_01,,清戸,,34.612340,133.859331,3005_01,,0,
3005_02,,清戸,,34.610665,133.858548,3005_02,,0,
3010_01,,門前,,34.608969,133.857539,3010_01,,0,
3010_02,,門前,,34.608473,133.857401,3010_02,,0,
3015_01,,東内尾,,34.603936,133.854931,3015_01,,0,
3015_02,,東内尾,,34.603905,133.854973,3015_02,,0,
3020_01,,内尾,,34.600291,133.853012,3020_01,,0,
3020_02,,内尾,,34.600568,133.853247,3020_02,,0,
3025_01,,大曲,,34.595993,133.851352,3025_01,,0,
3025_02,,大曲,,34.595319,133.851376,3025_02,,0,
3030_01,,中畦,,34.592219,133.851153,3030_01,,0,
3030_02,,中畦,,34.591796,133.851201,3030_02,,0,
3035_01,,南区役所興除地域センター前,,34.588758,133.850977,3035_01,,0,
3035_02,,南区役所興除地域センター前,,34.588579,133.851044,3035_02,,0,
3040_01,,中央中畦,,34.585522,133.850783,3040_01,,0,
3040_02,,中央中畦,,34.585520,133.850823,3040_02,,0,
3045_01,,南中畦,,34.582313,133.850572,3045_01,,0,
3045_02,,南中畦,,34.582252,133.850603,3045_02,,0,
3050_01,,興除郵便局前,,34.579082,133.850373,3050_01,,0,
3050_02,,興除郵便局前,,34.579199,133.850437,3050_02,,0,
3055_01,,丙川,,34.577702,133.850296,3055_01,,0,
3055_02,,丙川,,34.577192,133.850225,3055_02,,0,
3060_01,,東曽根,,34.573912,133.848042,3060_01,,0,
3060_02,,東曽根,,34.573607,133.847878,3060_02,,0,
3065_01,,曽根新道,,34.569186,133.844946,3065_01,,0,
3065_02,,曽根新道,,34.569062,133.844909,3065_02,,0,
3070_01,,下電バス興除営業所前,,34.566267,133.843073,3070_01,,0,
3070_02,,下電バス興除営業所前,,34.566037,133.842984,3070_02,,0,
3075_01,,曽根小学校前,,34.561433,133.839917,3075_01,,0,
3075_02,,曽根小学校前,,34.561579,133.840089,3075_02,,0,
3080_01,,東西畦,,34.559076,133.838394,3080_01,,0,
3080_02,,東西畦,,34.558566,133.838032,3080_02,,0,
3085_01,,西畦,,34.556368,133.835749,3085_01,,0,
3085_02,,西畦,,34.556202,133.835704,3085_02,,0,
3090_01,,彦崎跨線橋,,34.554230,133.833456,3090_01,,0,
3090_02,,彦崎跨線橋,,34.553985,133.832925,3090_02,,0,
3095_01,,植松駅,,34.550960,133.828204,3095_01,,0,
3095_02,,植松駅,,34.550424,133.827574,3095_02,,0,
3100_01,,植松,,34.548988,133.824862,3100_01,,0,
3100_02,,植松,,34.548714,133.824661,3100_02,,0,
3105_01,,西植松,,34.547437,133.822011,3105_01,,0,
3105_02,,西植松,,34.546739,133.820981,3105_02,,0,
3110_01,,熊野神社入口,,34.542914,133.815629,3110_01,,0,
3110_02,,熊野神社入口,,34.542506,133.815751,3110_02,,0,
3115_01,,チクバ外科前,,34.538308,133.812285,3115_01,,0,
3115_02,,チクバ外科前,,34.538151,133.812371,3115_02,,0,
3120_01,,バイストン・倉敷帆布入口,,34.532870,133.808699,3120_01,,0,
3120_02,,バイストン・倉敷帆布入口,,34.532815,133.808778,3120_02,,0,
3125_01,,福江,,34.528245,133.804603,3125_01,,0,
3125_02,,福江,,34.528285,133.804697,3125_02,,0,
3130_01,,三軒茶屋,,34.523706,133.805167,3130_01,,0,
3130_02,,三軒茶屋,,34.523105,133.805537,3130_02,,0,
3135_01,,木華佐久耶比咩神社入口,,34.517664,133.806143,3135_01,,0,
3135_02,,木華佐久耶比咩神社入口,,34.517322,133.806467,3135_02,,0,
3140_01,,児島縫製センター入口,,34.512338,133.807286,3140_01,,0,
3140_02,,児島縫製センター入口,,34.512712,133.807353,3140_02,,0,
3145_01,,茶屋住宅前,,34.508872,133.807599,3145_01,,0,
3145_02,,茶屋住宅前,,34.510236,133.807782,3145_02,,0,
3150_01,,茶屋,,34.506578,133.807873,3150_01,,0,
3150_02,,茶屋,,34.506432,133.808136,3150_02,,0,
3155_01,,市立短大・翔南高校入口,,34.501850,133.806140,3155_01,,0,
3155_02,,市立短大・翔南高校入口,,34.501682,133.806298,3155_02,,0,
3160_01,,滑口,,34.500740,133.808982,3160_01,,0,
3160_02,,滑口,,34.500065,133.809644,3160_02,,0,
3165_01,,市立短大・翔南高校前,,34.499107,133.810381,3165_01,,0,
3170_01,,上久保,,34.497423,133.811470,3170_01,,0,
3170_02,,上久保,,34.496947,133.811706,3170_02,,0,
3175_01,,久保,,34.493921,133.813004,3175_01,,0,
3175_02,,久保,,34.494995,133.812543,3175_02,,0,
3180_01,,ＪＲ上之町駅前,,34.490758,133.815295,3180_01,,0,
3180_02,,ＪＲ上之町駅前,,34.491078,133.815182,3180_02,,0,
3185_01,,安田口,,34.487265,133.817577,3185_01,,0,
3185_02,,安田口,,34.486528,133.817915,3185_02,,0,
3190_01,,内田口,,34.483214,133.819675,3190_01,,0,
3190_02,,内田口,,34.483746,133.819350,3190_02,,0,
3195_01,,琴浦西小学校前,,34.480706,133.821672,3195_01,,0,
3195_02,,琴浦西小学校前,,34.480654,133.821786,3195_02,,0,
3200_01,,岡熊,,34.478136,133.823892,3200_01,,0,
3200_02,,岡熊,,34.478079,133.823998,3200_02,,0,
3205_01,,下之町鴻八幡宮前,,34.476460,133.825614,3205_01,,0,
3205_02,,下之町鴻八幡宮前,,34.476374,133.825766,3205_02,,0,
3210_01,,下之町南,,34.474147,133.826592,3210_01,,0,
3210_02,,下之町南,,34.474332,133.827056,3210_02,,0,
3215_01,,新常盤橋,,34.472758,133.824568,3215_01,,0,
3215_02,,新常盤橋,,34.472857,133.824881,3215_02,,0,
3805_01,,青陵高等学校西,,34.599200,133.777437,3805_01,,0,
3805_02,,青陵高等学校西,,34.599030,133.777543,3805_02,,0,
3810_01,,倉敷市民会館前,,34.595149,133.777033,3810_01,,0,
3810_02,,倉敷市民会館前,,34.594643,133.775759,3810_02,,0,
3815_01,,倉敷芸文館東,,34.593363,133.771666,3815_01,,0,
3815_02,,倉敷芸文館東,,34.593356,133.771781,3815_02,,0,
3820_01,,倉敷商業高校東,,34.590055,133.772599,3820_01,,0,
3820_02,,倉敷商業高校東,,34.590101,133.772664,3820_02,,0,
3825_01,,倉敷市役所東,,34.586251,133.776859,3825_01,,0,
3825_02,,倉敷市役所東,,34.586641,133.776421,3825_02,,0,
3835_01,,上名田,,34.584137,133.779653,3835_01,,0,
3835_02,,上名田,,34.584238,133.779633,3835_02,,0,
3840_01,,東新田,,34.582640,133.781678,3840_01,,0,
3840_02,,東新田,,34.582432,133.782126,3840_02,,0,
3850_01,,小瀬戸,,34.577228,133.791285,3850_01,,0,
3850_02,,小瀬戸,,34.576963,133.791518,3850_02,,0,
3855_01,,倉敷市ふじ園・倉敷児童館前,,34.572876,133.795942,3855_01,,0,
3855_02,,倉敷市ふじ園・倉敷児童館前,,34.572998,133.795843,3855_02,,0,
3860_01,,岡山学院大学・短期大学前,,34.571302,133.798265,3860_01,,0,
3860_02,,岡山学院大学・短期大学前,,34.571503,133.798198,3860_02,,0,
3865_01,,有城,,34.569859,133.800266,3865_01,,0,
3865_02,,有城,,34.569367,133.801130,3865_02,,0,
3870_01,,高速道下,,34.568417,133.802270,3870_01,,0,
3870_02,,高速道下,,34.568351,133.802455,3870_02,,0,
3875_01,,天城郵便局前,,34.564919,133.805319,3875_01,,0,
3875_02,,天城郵便局前,,34.564877,133.805482,3875_02,,0,
3880_01,,天城中学高校西入口,,34.561565,133.808090,3880_01,,0,
3880_02,,天城中学高校西入口,,34.562408,133.807586,3880_02,,0,
3885_01,,天城中学高校南入口,,34.560209,133.809978,3885_01,,0,
3890_01,,藤戸,,34.559506,133.811595,3890_01,,0,
3890_02,,藤戸,,34.559543,133.811635,3890_02,,0,
3895_01,,東新町,,34.559141,133.813232,3895_01,,0,
3895_02,,東新町,,34.559255,133.812816,3895_02,,0,
3900_01,,塩干,,34.555325,133.815999,3900_01,,0,
3900_02,,塩干,,34.555128,133.816038,3900_02,,0,
3905_01,,串田,,34.551968,133.816347,3905_01,,0,
3905_02,,串田,,34.551957,133.816385,3905_02,,0,
3910_01,,串田橋,,34.547255,133.815233,3910_01,,0,
3910_02,,串田橋,,34.547242,133.815277,3910_02,,0,
3915_01,,帆干谷,,34.497093,133.803850,3915_01,,0,
3915_02,,帆干谷,,34.496408,133.803528,3915_02,,0,
3920_01,,ニシナ栁田店前,,34.493514,133.802004,3920_01,,0,
3920_02,,ニシナ栁田店前,,34.493661,133.802138,3920_02,,0,
3925_01,,新児島団地入口,,34.491850,133.801163,3925_01,,0,
3925_02,,新児島団地入口,,34.491476,133.801043,3925_02,,0,
3930_01,,田嶋内科前,,34.488131,133.799329,3930_01,,0,
3930_02,,田嶋内科前,,34.487943,133.799346,3930_02,,0,
3935_01,,小川七丁目,,34.481625,133.799138,3935_01,,0,
3935_02,,小川七丁目,,34.481216,133.799286,3935_02,,0,
3940_01,,井戸,,34.478595,133.800182,3940_01,,0,
3940_02,,井戸,,34.477332,133.800705,3940_02,,0,
3945_01,,倉敷鷲羽高校入口,,34.475509,133.801739,3945_01,,0,
3945_02,,倉敷鷲羽高校入口,,34.474996,133.802189,3945_02,,0,
3950_01,,新田,,34.579780,133.784256,3950_01,,0,
3950_02,,新田,,34.579771,133.784530,3950_02,,0,
3955_01,,八軒屋北,,34.576792,133.785750,3955_01,,0,
3955_02,,八軒屋北,,34.576359,133.786179,3955_02,,0,
4205_01,,浦田駅前,,34.561378,133.750028,4205_01,,0,
4205_02,,浦田駅前,,34.561387,133.750077,4205_02,,0,
4210_01,,浦田口,,34.558161,133.750578,4210_01,,0,
4210_02,,浦田口,,34.558548,133.750605,4210_02,,0,
4215_01,,一文字,,34.552997,133.751871,4215_01,,0,
4215_02,,一文字,,34.553046,133.752053,4215_02,,0,
4220_01,,北畝七丁目,,34.547238,133.753686,4220_01,,0,
4220_02,,北畝七丁目,,34.546591,133.754152,4220_02,,0,
4225_01,,北畝,,34.544326,133.755483,4225_01,,0,
4225_02,,北畝,,34.543867,133.755843,4225_02,,0,
4230_01,,ﾗｲﾌﾊﾟｰｸ倉敷西入口,,34.537360,133.759800,4230_01,,0,
4230_02,,ﾗｲﾌﾊﾟｰｸ倉敷西入口,,34.537691,133.759757,4230_02,,0,
4235_01,,福田南中学校前,,34.533981,133.761862,4235_01,,0,
4235_02,,福田南中学校前,,34.534205,133.761881,4235_02,,0,
4240_01,,倉敷広済クリニック前,,34.531292,133.763885,4240_01,,0,
4240_02,,倉敷広済クリニック前,,34.531438,133.764054,4240_02,,0,
4245_01,,福田運動公園前,,34.529361,133.767039,4245_01,,0,
4245_02,,福田運動公園前,,34.529250,133.767818,4245_02,,0,
4250_01,,樋の輪,,34.527788,133.769896,4250_01,,0,
4250_02,,樋の輪,,34.527989,133.770051,4250_02,,0,
4255_01,,新高橋,,34.523742,133.769177,4255_01,,0,
4255_02,,新高橋,,34.523804,133.769289,4255_02,,0,
4260_01,,高橋,,34.521935,133.768714,4260_01,,0,
4265_01,,呼松,,34.513684,133.770405,4265_01,,0,
4265_02,,呼松,,34.513781,133.770499,4265_02,,0,
4270_01,,小南,,34.511035,133.769866,4270_01,,0,
4275_01,,水尻,,34.507803,133.770529,4275_01,,0,
4280_01,,宇野津,,34.498792,133.770182,4280_01,,0,
4280_02,,宇野津,,34.497179,133.770872,4280_02,,0,
4285_01,,宇頭間,,34.492066,133.769845,4285_01,,0,
4285_02,,宇頭間,,34.491702,133.770193,4285_02,,0,
4290_01,,金浜,,34.487959,133.770445,4290_01,,0,
4290_02,,金浜,,34.487875,133.770630,4290_02,,0,
4295_01,,Ｃ地区旭化成前,,34.483687,133.770392,4295_01,,0,
4295_02,,Ｃ地区旭化成前,,34.483031,133.770394,4295_02,,0,
4300_01,,塩生浜,,34.480077,133.769386,4300_01,,0,
4300_02,,塩生浜,,34.479478,133.769700,4300_02,,0,
4305_01,,塩生,,34.476968,133.771486,4305_01,,0,
4310_01,,塩生中央口,,34.475283,133.772254,4310_01,,0,
4310_02,,塩生中央口,,34.475013,133.772417,4310_02,,0,
4315_01,,本荘いこいの家前,,34.473120,133.772867,4315_01,,0,
4315_02,,本荘いこいの家前,,34.472988,133.772725,4315_02,,0,
4320_01,,通生辻浜,,34.463307,133.775641,4320_01,,0,
4320_02,,通生辻浜,,34.462845,133.777006,4320_02,,0,
4325_01,,通生港口,,34.462298,133.778173,4325_01,,0,
4325_02,,通生港口,,34.462252,133.779176,4325_02,,0,
4330_01,,大池,,34.461082,133.782566,4330_01,,0,
4330_02,,大池,,34.461261,133.782572,4330_02,,0,
4335_01,,松池入口,,34.459463,133.785337,4335_01,,0,
4335_02,,松池入口,,34.459472,133.785533,4335_02,,0,
4340_01,,わたなべ生鮮館菰池店前,,34.455387,133.793963,4340_01,,0,
4340_02,,わたなべ生鮮館菰池店前,,34.455522,133.793054,4340_02,,0,
4345_01,,赤崎小学校前,,34.456084,133.798032,4345_01,,0,
4345_02,,赤崎小学校前,,34.456303,133.798094,4345_02,,0,
4350_01,,赤崎入口,,34.457371,133.801479,4350_01,,0,
4350_02,,赤崎入口,,34.457377,133.801424,4350_02,,0,
4355_01,,赤崎,,34.461646,133.800473,4355_01,,0,
4355_02,,赤崎,,34.462042,133.800357,4355_02,,0,
4360_01,,味野元町,,34.464769,133.801036,4360_01,,0,
4360_02,,味野元町,,34.465596,133.801202,4360_02,,0,
4365_01,,南塩生,,34.471096,133.775960,4365_01,,0,
4370_01,,通生,,34.462890,133.779415,4370_01,,0,
4505_01,,古新田,,34.544562,133.767911,4505_01,,0,
4505_02,,古新田,,34.544567,133.768084,4505_02,,0,
4510_01,,古新田南,,34.540602,133.770710,4510_01,,0,
4510_02,,古新田南,,34.541364,133.770352,4510_02,,0,
4515_01,,ライフパーク倉敷入口,,34.537137,133.771805,4515_01,,0,
4515_02,,ライフパーク倉敷入口,,34.537408,133.771899,4515_02,,0,
4520_01,,福田公園北門前,,34.535599,133.771945,4520_01,,0,
4520_02,,福田公園北門前,,34.535033,133.772098,4520_02,,0,
4525_01,,福田公園東門前,,34.531301,133.772073,4525_01,,0,
4525_02,,福田公園東門前,,34.530781,133.772213,4525_02,,0,
4530_01,,広江山の鼻,,34.524029,133.770536,4530_01,,0,
4530_02,,広江山の鼻,,34.523703,133.770804,4530_02,,0,
4535_01,,新呼松,,34.512212,133.772457,4535_01,,0,
4535_02,,新呼松,,34.512066,133.772642,4535_02,,0,
4540_01,,新水尻,,34.509072,133.771714,4540_01,,0,
4540_02,,新水尻,,34.509025,133.771862,4540_02,,0,
4545_01,,高島口,,34.475967,133.770588,4545_01,,0,
4545_02,,高島口,,34.476026,133.770723,4545_02,,0,
4550_01,,瀬戸埠頭入口,,34.473159,133.772002,4550_01,,0,
4550_02,,瀬戸埠頭入口,,34.473187,133.772174,4550_02,,0,
4555_01,,樋の輪南,,34.525768,133.770448,4555_01,,0,
4555_02,,樋の輪南,,34.525695,133.770722,4555_02,,0,
4805_01,,西帯江,,34.594384,133.791070,4805_01,,0,
4805_02,,西帯江,,34.594639,133.790860,4805_02,,0,
4810_01,,二日市,,34.592339,133.793410,4810_01,,0,
4810_02,,二日市,,34.591891,133.793997,4810_02,,0,
4815_01,,ニシナ加須山店前,,34.587893,133.800040,4815_01,,0,
4815_02,,ニシナ加須山店前,,34.587762,133.800426,4815_02,,0,
4820_01,,亀山,,34.586959,133.801831,4820_01,,0,
4820_02,,亀山,,34.586992,133.801910,4820_02,,0,
4825_01,,亀山郵便局前,,34.585311,133.804991,4825_01,,0,
4825_02,,亀山郵便局前,,34.585159,133.805416,4825_02,,0,
4830_01,,六間川,,34.583579,133.808310,4830_01,,0,
4830_02,,六間川,,34.583493,133.808572,4830_02,,0,
4835_01,,帯高古開,,34.582274,133.810788,4835_01,,0,
4835_02,,帯高古開,,34.582464,133.810614,4835_02,,0,
4840_01,,帯高,,34.580430,133.814888,4840_01,,0,
4840_02,,帯高,,34.580536,133.814733,4840_02,,0,
4845_01,,茶屋町橋西,,34.579570,133.817266,4845_01,,0,
4845_02,,茶屋町橋西,,34.579641,133.817187,4845_02,,0,
4850_01,,茶屋町橋,,34.578497,133.820127,4850_01,,0,
4850_02,,茶屋町橋,,34.578546,133.820175,4850_02,,0,
4855_01,,磯崎眠亀記念館前,,34.577609,133.822459,4855_01,,0,
4855_02,,磯崎眠亀記念館前,,34.577860,133.821993,4855_02,,0,
4860_01,,茶屋町駅前,,34.576889,133.825571,4860_01,,0,
4905_01,,曽根新道,,34.569215,133.844185,4905_01,,0,
4910_01,,共睦公会堂前,,34.577108,133.835297,4910_01,,0,
4910_02,,共睦公会堂前,,34.577335,133.834771,4910_02,,0,
4915_01,,共睦,,34.578176,133.831775,4915_01,,0,
4915_02,,共睦,,34.578468,133.830998,4915_02,,0,
4920_01,,茶屋町公民館前,,34.579254,133.828122,4920_01,,0,
4920_02,,茶屋町公民館前,,34.579253,133.828357,4920_02,,0,
5105_01,,倉敷高校前,,34.621679,133.805602,5105_01,,0,
5105_02,,倉敷高校前,,34.621900,133.805753,5105_02,,0,
5110_01,,鳥羽,,34.619989,133.806315,5110_01,,0,
5110_02,,鳥羽,,34.619815,133.806653,5110_02,,0,
5115_01,,マスカットスタジアム南口,,34.617298,133.805499,5115_01,,0,
5115_02,,マスカットスタジアム南口,,34.617294,133.806089,5115_02,,0,
5120_01,,吉田,,34.616757,133.802380,5120_01,,0,
5125_01,,中庄小学校前,,34.615473,133.798568,5125_01,,0,
5125_02,,中庄小学校前,,34.615153,133.798314,5125_02,,0,
5130_01,,倉敷中庄自動車学校,,34.612301,133.795149,5130_01,,0,
5130_02,,倉敷中庄自動車学校,,34.612409,133.795548,5130_02,,0,
5135_01,,黒崎,,34.610051,133.792574,5135_01,,0,
5135_02,,黒崎,,34.610312,133.791887,5135_02,,0,
5140_01,,中庄団地東,,34.612250,133.791010,5140_01,,0,
5140_02,,中庄団地東,,34.612612,133.790779,5140_02,,0,
5145_01,,中庄団地西,,34.612663,133.788789,5145_01,,0,
5145_02,,中庄団地西,,34.612552,133.788709,5145_02,,0,
5150_01,,中庄住宅前,,34.610711,133.788827,5150_01,,0,
5150_02,,中庄住宅前,,34.610614,133.788923,5150_02,,0,
5155_01,,福島,,34.606857,133.788379,5155_01,,0,
5155_02,,福島,,34.606616,133.788419,5155_02,,0,
5160_01,,福島中,,34.603786,133.786737,5160_01,,0,
5160_02,,福島中,,34.604031,133.787035,5160_02,,0,
5165_01,,八軒樋,,34.601841,133.785699,5165_01,,0,
5165_02,,八軒樋,,34.601735,133.785836,5165_02,,0,
5170_01,,福島南,,34.600912,133.783308,5170_01,,0,
5170_02,,福島南,,34.600900,133.782887,5170_02,,0,
5175_01,,大島,,34.601307,133.781146,5175_01,,0,
5175_02,,大島,,34.601190,133.780980,5175_02,,0,
5180_01,,青陵高等学校北,,34.601201,133.778298,5180_01,,0,
5180_02,,青陵高等学校北,,34.601116,133.778298,5180_02,,0,
5185_01,,南町,,34.593928,133.766267,5185_01,,0,
5190_01,,老松町東,,34.593029,133.764110,5190_01,,0,
5195_01,,白楽町,,34.590832,133.764129,5195_01,,0,
5405_01,,児島ＩＣ,,34.452421,133.801610,5405_01,,0,
5410_01,,鷲羽山北,,34.440973,133.808135,5410_01,,0,
5410_02,,鷲羽山北,,34.441886,133.808601,5410_02,,0,
5415_01,,櫃石島,,34.419783,133.802857,5415_01,,0,
5420_01,,櫃石学校前,,34.420173,133.807133,5420_01,,0,
5425_01,,櫃石,,34.422976,133.807584,5425_01,,0,
5430_01,,岩黒島,,34.405646,133.807927,5430_01,,0,
5430_02,,岩黒島,,34.405574,133.808356,5430_02,,0,
5435_01,,与島パーキングエリア,,34.387167,133.816657,5435_01,,0,
5440_01,,塩浜,,34.390116,133.818422,5440_01,,0,
5445_01,,与島第二駐車場,,34.391643,133.817912,5445_01,,0,
5605_01,,鷲羽ハイランドボウル前,,34.446408,133.802509,5605_01,,0,
5605_02,,鷲羽ハイランドボウル前,,34.446404,133.802629,5605_02,,0,
5610_01,,鷲羽山ハイランド遊園地前,,34.445695,133.798118,5610_01,,0,
5615_01,,下津井中学校入口,,34.441038,133.804598,5615_01,,0,
5620_01,,田之浦,,34.439226,133.806784,5620_01,,0,
5620_02,,田之浦,,34.438953,133.806801,5620_02,,0,
5625_01,,下電ホテル前,,34.433410,133.816414,5625_01,,0,
5630_01,,鷲麓園別館前,,34.432429,133.818491,5630_01,,0,
5635_01,,久須見弘法大師堂前,,34.430987,133.820359,5635_01,,0,
5640_01,,鷲羽山第二展望台,,34.435813,133.816292,5640_01,,0,
5645_01,,田之浦港前,,34.436595,133.806202,5645_01,,0,
5645_02,,田之浦港前,,34.436491,133.806312,5645_02,,0,
5650_01,,吹上港前,,34.437303,133.802258,5650_01,,0,
5655_01,,下津井漁港前,,34.437211,133.797552,5655_01,,0,
5655_02,,下津井漁港前,,34.437176,133.797495,5655_02,,0,
5660_01,,下津井公民館前,,34.438842,133.792831,5660_01,,0,
5665_01,,下津井,,34.438954,133.790215,5665_01,,0,
5805_01,,扇の嵶入口,,34.455489,133.801847,5805_01,,0,
5810_01,,三百山入口,,34.448818,133.786899,5810_01,,0,
5815_01,,下津井三丁目,,34.443092,133.788810,5815_01,,0,
5820_01,,下津井二丁目,,34.441097,133.789706,5820_01,,0,
5825_01,,下津井港前,,34.439648,133.791072,5825_01,,0,
5830_01,,下津井城跡入口,,34.437898,133.794605,5830_01,,0,
5835_01,,祇園神社下,,34.436360,133.795599,5835_01,,0,
5840_01,,下津井郵便局前,,34.436540,133.800501,5840_01,,0,
5845_01,,田之浦二丁目,,34.436502,133.804448,5845_01,,0,
5850_01,,田土浦公園前,,34.435399,133.808008,5850_01,,0,
5855_01,,長浜,,34.436583,133.815397,5855_01,,0,
5860_01,,大畠南,,34.439418,133.811759,5860_01,,0,
5865_01,,大畠漁港前,,34.441356,133.811071,5865_01,,0,
5870_01,,大畠,,34.442805,133.810585,5870_01,,0,
5875_01,,琴海,,34.444331,133.809970,5875_01,,0,
5880_01,,児島ボートレース場第二入場門,,34.448315,133.808727,5880_01,,0,
5885_01,,阿津一丁目,,34.456310,133.807296,5885_01,,0,
5895_01,,マルナカ児島店前,,34.459972,133.803129,5895_01,,0,
5900_01,,児島警察署前,,34.462184,133.803482,5900_01,,0,
5900_02,,児島警察署前,,34.462044,133.803477,5900_02,,0,
5905_01,,児島中央病院入口,,34.466498,133.810252,5905_01,,0,
5905_02,,児島中央病院入口,,34.466250,133.810241,5905_02,,0,
5910_01,,児島支所前,,34.467146,133.812792,5910_01,,0,
5915_01,,児島支所入口,,34.468526,133.813278,5915_01,,0,
5920_01,,倉敷市立市民病院,,34.467489,133.805399,5920_01,,0,
5925_01,,児島市民交流センター南,,34.467193,133.803536,5925_01,,0,
5930_01,,鷲羽ハイランドホテル前,,34.444857,133.800127,5930_01,,0,
6205_01,,味野中学校前,,34.463415,133.802337,6205_01,,0,
6205_02,,味野中学校前,,34.463342,133.802482,6205_02,,0,
6210_01,,味野医院前,,34.465676,133.802258,6210_01,,0,
6210_02,,味野医院前,,34.465840,133.802439,6210_02,,0,
6215_01,,辻,,34.484295,133.803014,6215_01,,0,
6220_01,,中山公園口,,34.483517,133.806671,6220_01,,0,
6225_01,,グリーンハイツ,,34.484725,133.806202,6225_01,,0,
6230_01,,ガーデンタウン,,34.485449,133.805766,6230_01,,0,
6235_01,,中山団地西,,34.486672,133.808750,6235_01,,0,
6240_01,,中山団地,,34.485094,133.810062,6240_01,,0,
6242_01,,西の頭,,34.488111,133.813739,6242_01,,0,
6245_01,,天王,,34.492873,133.813500,6245_01,,0,
6250_01,,ＪＲ上の町駅,,34.490561,133.814667,6250_01,,0,
6255_01,,わたなべ生鮮館上の町店前,,34.487870,133.815135,6255_01,,0,
6260_01,,安田,,34.485854,133.816107,6260_01,,0,
6265_01,,山際,,34.483654,133.817355,6265_01,,0,
6270_01,,小西,,34.481690,133.818496,6270_01,,0,
6275_01,,ニシナフードバスケット前,,34.480163,133.819502,6275_01,,0,
6280_01,,琴浦西小学校,,34.478723,133.820415,6280_01,,0,
6285_01,,王慈園前,,34.477267,133.821397,6285_01,,0,
6290_01,,沖熊橋,,34.474815,133.823273,6290_01,,0,
6295_01,,やまな内科整形外科前,,34.473557,133.823695,6295_01,,0,
6300_01,,新常盤橋西,,34.472147,133.823655,6300_01,,0,
6300_02,,新常盤橋西,,34.471696,133.823160,6300_02,,0,
6305_01,,和井田南,,34.470018,133.820442,6305_01,,0,
6305_02,,和井田南,,34.470094,133.820737,6305_02,,0,
6310_01,,萱刈南,,34.468769,133.817110,6310_01,,0,
6310_02,,萱刈南,,34.468510,133.816732,6310_02,,0,
6315_01,,昭和橋,,34.467996,133.807648,6315_01,,0,
6320_01,,野﨑家旧宅前,,34.472281,133.803819,6320_01,,0,
6505_01,,由加中の口,,34.476398,133.850047,6505_01,,0,
6505_02,,由加中の口,,34.476407,133.849958,6505_02,,0,
6510_01,,母谷園前,,34.478570,133.853106,6510_01,,0,
6515_01,,峠入口,,34.480202,133.853851,6515_01,,0,
6520_01,,加茂路峠,,34.480973,133.857328,6520_01,,0,
6520_02,,加茂路峠,,34.481055,133.857021,6520_02,,0,
6525_01,,白尾,,34.486209,133.855785,6525_01,,0,
6530_01,,平野切抜,,34.494326,133.852162,6530_01,,0,
6535_01,,琴浦北小前,,34.499779,133.851215,6535_01,,0,
6540_01,,由加山自然の家前,,34.501572,133.851885,6540_01,,0,
6545_01,,由加山,,34.502824,133.851658,6545_01,,0,
6550_01,,峠,,34.489646,133.846198,6550_01,,0,
6820_01,,児島学生服資料館前,,34.480044,133.821571,6820_01,,0,
5935_01,,児島消防署前,,34.469044,133.810192,5935_01,,0,
6825_01,,熊野神社入口,,34.542343,133.816468,6825_01,,0,
6825_02,,熊野神社入口,,34.541708,133.816119,6825_02,,0,
6830_01,,市立短大・翔南高校入口,,34.501964,133.807058,6830_01,,0,
6830_02,,市立短大・翔南高校入口,,34.501976,133.807134,6830_02,,0,
6835_01,,塩生浜,,34.480077,133.769386,6835_01,,0,
6835_02,,塩生浜,,34.478925,133.769417,6835_02,,0,
i-475_01,,Jeans Museum Entrence,,34.476439,133.822059,i-475_01,,0,
