stop_id,stop_code,stop_name,stop_desc,stop_lat,stop_lon,zone_id,stop_url,location_type
2_01,2,岡山駅,,34.664964,133.918558,2_01,,0
2_04,2,岡山駅,,34.665102,133.918658,2_04,,0
3_03,3,柳川西（北側）東岡山,,34.665708,133.923902,3_03,,0
4_01,4,岡山駅前・ドレミの街,,34.665691,133.921284,4_01,,0
5_01,5,柳川西（北側）,,34.665708,133.923902,5_01,,0
6_01,6,柳川,,34.665765,133.927512,6_01,,0
6_05,6,柳川,,34.665496,133.927501,6_05,,0
6_06,6,柳川,,34.665773,133.927505,6_06,,0
7_03,7,柳川西（南側）,,34.665433,133.924757,7_03,,0
8_01,8,表町入口,,34.665781,133.928970,8_01,,0
8_05,8,表町入口,,34.665468,133.928913,8_05,,0
8_06,8,表町入口,,34.665783,133.928967,8_06,,0
10_01,10,中銀本店西,,34.662870,133.930568,10_01,,0
10_03,10,中銀本店西,,34.662609,133.930308,10_03,,0
12_01,12,表町BC,,34.661572,133.930042,12_01,,0
12_02,12,表町BC,,34.661499,133.930044,12_02,,0
12_03,12,表町BC,,34.661394,133.930167,12_03,,0
12_04,12,表町BC,,34.661395,133.930248,12_04,,0
12_05,12,表町BC,,34.661649,133.930329,12_05,,0
14_01,14,中銀本店前,,34.662347,133.931000,14_01,,0
15_05,15,中電前,,34.660463,133.931548,15_05,,0
16_01,16,県庁前,,34.662238,133.934469,16_01,,0
16_05,16,県庁前,,34.660805,133.934633,16_05,,0
18_01,18,朝日高前,,34.661932,133.942239,18_01,,0
18_05,18,朝日高前,,34.661685,133.942083,18_05,,0
20_01,20,国富,,34.664014,133.944446,20_01,,0
20_05,20,国富,,34.664846,133.945205,20_05,,0
22_01,22,国富東,,34.667320,133.947257,22_01,,0
22_05,22,国富東,,34.666825,133.946809,22_05,,0
24_01,24,原東,,34.669042,133.951189,24_01,,0
24_05,24,原東,,34.668601,133.950368,24_05,,0
26_01,26,原尾島住宅前,,34.670595,133.954844,26_01,,0
26_05,26,原尾島住宅前,,34.670339,133.954651,26_05,,0
28_01,28,二本松,,34.67312,133.9586,28_01,,0
28_05,28,二本松,,34.67303,133.9589,28_05,,0
30_01,30,二本松東,,34.673287,133.961925,30_01,,0
30_05,30,二本松東,,34.673145,133.960969,30_05,,0
32_01,32,高屋,,34.673452,133.965319,32_01,,0
32_05,32,高屋,,34.673350,133.964635,32_05,,0
34_01,34,高屋東,,34.673569,133.967594,34_01,,0
34_05,34,高屋東,,34.673492,133.967572,34_05,,0
36_01,36,兼基西,,34.673697,133.970337,36_01,,0
36_05,36,兼基西,,34.673600,133.970080,36_05,,0
38_01,38,兼基,,34.674533,133.974227,38_01,,0
38_05,38,兼基,,34.674193,133.973623,38_05,,0
40_01,40,兼基東,,34.675539,133.976791,40_01,,0
40_05,40,兼基東,,34.675111,133.975924,40_05,,0
42_01,42,乙多見西,,34.676681,133.979671,42_01,,0
42_05,42,乙多見西,,34.676315,133.979041,42_05,,0
44_01,44,乙多見,,34.677817,133.982549,44_01,,0
44_05,44,乙多見,,34.677361,133.981694,44_05,,0
46_01,46,長岡団地,,34.678726,133.984795,46_01,,0
46_05,46,長岡団地,,34.678351,133.984256,46_05,,0
48_01,48,長岡西,,34.679986,133.988083,48_01,,0
48_05,48,長岡西,,34.679668,133.987421,48_05,,0
3002_01,3002,県立美術館(Okayama Prefectural Museum),,34.667937,133.930386,3002_01,,0
50_01,50,長岡,,34.681630,133.991027,50_01,,0
50_05,50,長岡,,34.680757,133.989769,50_05,,0
52_05,52,ワールド前,,34.681656,133.991309,52_05,,0
54_01,54,宍甘,,34.684046,133.995097,54_01,,0
54_05,54,宍甘,,34.683914,133.995131,54_05,,0
56_01,56,宿,,34.687076,134.000316,56_01,,0
56_05,56,宿,,34.686249,133.999082,56_05,,0
58_01,58,積水前,,34.689170,134.003895,58_01,,0
58_05,58,積水前,,34.687625,134.001427,58_05,,0
60_05,60,三石深井鉄工所前,,34.688983,134.003729,60_05,,0
62_01,62,藤井,,34.690801,134.006656,62_01,,0
62_05,62,藤井,,34.690600,134.006500,62_05,,0
64_01,64,鉄,,34.693540,134.011327,64_01,,0
64_05,64,鉄,,34.693388,134.011257,64_05,,0
66_01,66,北方,,34.696752,134.016780,66_01,,0
66_05,66,北方,,34.696655,134.016791,66_05,,0
68_01,68,中尾,,34.699212,134.021645,68_01,,0
68_05,68,中尾,,34.699245,134.022042,68_05,,0
70_01,70,沼西,,34.700545,134.025416,70_01,,0
70_05,70,沼西,,34.701082,134.027560,70_05,,0
72_01,72,沼,,34.702425,134.031419,72_01,,0
72_05,72,沼,,34.702551,134.032098,72_05,,0
74_01,74,浮田校口,,34.703146,134.035266,74_01,,0
74_05,74,浮田校口,,34.703084,134.034925,74_05,,0
76_01,76,八ツ塚,,34.702928,134.038522,76_01,,0
76_05,76,八ツ塚,,34.702899,134.037967,76_05,,0
78_01,78,赤坂,,34.703388,134.043186,78_01,,0
78_05,78,赤坂,,34.703174,134.042915,78_05,,0
80_01,80,南古都,,34.705336,134.047338,80_01,,0
80_05,80,南古都,,34.705375,134.047668,80_05,,0
82_01,82,平島,,34.706118,134.051713,82_01,,0
82_05,82,平島,,34.705966,134.051695,82_05,,0
84_01,84,矢井,,34.705316,134.060928,84_01,,0
84_05,84,矢井,,34.705240,134.061247,84_05,,0
86_01,86,山の端,,34.705267,134.066849,86_01,,0
86_05,86,山の端,,34.705111,134.066267,86_05,,0
88_01,88,浅川,,34.706659,134.071701,88_01,,0
88_05,88,浅川,,34.706436,134.072111,88_05,,0
90_01,90,新町,,34.708235,134.078141,90_01,,0
90_05,90,新町,,34.708380,134.078669,90_05,,0
92_01,92,一日市,,34.710165,134.082540,92_01,,0
92_05,92,一日市,,34.709839,134.082028,92_05,,0
94_01,94,吉井,,34.714323,134.089106,94_01,,0
94_05,94,吉井,,34.714576,134.089750,94_05,,0
96_01,96,八日市,,34.714869,134.096177,96_01,,0
96_05,96,八日市,,34.714759,134.096236,96_05,,0
98_01,98,天王,,34.721411,134.101503,98_01,,0
98_05,98,天王,,34.721342,134.101631,98_05,,0
100_01,100,船山,,34.726301,134.108940,100_01,,0
100_05,100,船山,,34.725966,134.107991,100_05,,0
102_01,102,二ノ樋,,34.727072,134.112355,102_01,,0
102_05,102,二ノ樋,,34.726715,134.110987,102_05,,0
104_01,104,香登駅前,,34.728838,134.119870,104_01,,0
104_05,104,香登駅前,,34.728525,134.118878,104_05,,0
106_01,106,香登東,,34.729914,134.124455,106_01,,0
106_05,106,香登東,,34.729874,134.124728,106_05,,0
108_01,108,大内,,34.732951,134.134457,108_01,,0
108_05,108,大内,,34.732737,134.134115,108_05,,0
110_01,110,池灘,,34.735198,134.141143,110_01,,0
110_05,110,池灘,,34.734598,134.139671,110_05,,0
112_01,112,備前病院前,,34.738380,134.156274,112_01,,0
112_05,112,備前病院前,,34.738239,134.155590,112_05,,0
114_01,114,伊部駅前,,34.738991,134.160007,114_01,,0
114_05,114,伊部駅前,,34.738852,134.160050,114_05,,0
116_01,116,東伊部,,34.739661,134.162894,116_01,,0
116_05,116,東伊部,,34.739758,134.163755,116_05,,0
118_01,118,田井山,,34.738308,134.168295,118_01,,0
118_05,118,田井山,,34.738363,134.168161,118_05,,0
120_01,120,岸本橋,,34.734805,134.174185,120_01,,0
120_05,120,岸本橋,,34.734675,134.172978,120_05,,0
122_01,122,浦伊部,,34.736579,134.177777,122_01,,0
122_05,122,浦伊部,,34.735916,134.177010,122_05,,0
124_01,124,恵美須前,,34.739059,134.179662,124_01,,0
124_05,124,恵美須前,,34.739234,134.180016,124_05,,0
126_05,126,片上,,34.742623,134.184238,126_05,,0
3001_01,3001,後楽園前(Korakuen),,34.669516,133.933637,3001_01,,0
192_01,192,長岡南,,34.681099,133.988902,192_01,,0
192_05,192,長岡南,,34.681260,133.988923,192_05,,0
194_01,194,長岡中央,,34.683307,133.987670,194_01,,0
194_05,194,長岡中央,,34.682513,133.987978,194_05,,0
196_05,196,長岡・駅前,,34.685301,133.988069,196_05,,0
200_02,200,藤原,,34.674567,133.958254,200_02,,0
200_05,200,藤原,,34.674144,133.958351,200_05,,0
202_02,202,藤原西町,,34.676337,133.958439,202_02,,0
202_05,202,藤原西町,,34.676370,133.958627,202_05,,0
204_02,204,赤田,,34.678161,133.958613,204_02,,0
204_05,204,赤田,,34.677594,133.958745,204_05,,0
206_02,206,清水,,34.680524,133.958838,206_02,,0
206_05,206,清水,,34.680114,133.958975,206_05,,0
208_02,208,中井,,34.686686,133.958654,208_02,,0
208_05,208,中井,,34.686780,133.958809,208_05,,0
210_02,210,中井北,,34.688826,133.958538,210_02,,0
210_05,210,中井北,,34.688751,133.958726,210_05,,0
212_02,212,国府市場西,,34.690907,133.958509,212_02,,0
212_05,212,国府市場西,,34.690577,133.958555,212_05,,0
214_02,214,国府市場,,34.691584,133.961531,214_02,,0
214_05,214,国府市場,,34.691510,133.960173,214_05,,0
216_02,216,賞田,,34.693846,133.961710,216_02,,0
216_05,216,賞田,,34.693830,133.961815,216_05,,0
218_02,218,賞田上,,34.695992,133.961601,218_02,,0
218_05,218,賞田上,,34.695587,133.961664,218_05,,0
220_02,220,脇田,,34.697090,133.961555,220_02,,0
222_02,222,浄土寺前,,34.697407,133.965445,222_02,,0
224_02,224,公会堂前,,34.697168,133.968580,224_02,,0
226_02,226,湯迫,,34.698021,133.970965,226_02,,0
228_02,228,湯迫東,,34.698241,133.974516,228_02,,0
228_05,228,湯迫東,,34.698241,133.974251,228_05,,0
230_02,230,東が丘西,,34.698031,133.975990,230_02,,0
232_02,232,東が丘団地入口,,34.697533,133.977755,232_02,,0
232_05,232,東が丘団地入口,,34.697533,133.977581,232_05,,0
234_02,234,東が丘団地,,34.699750,133.978910,234_02,,0
234_05,234,東が丘団地,,34.699653,133.979149,234_05,,0
236_02,236,東が丘団地中,,34.699247,133.980865,236_02,,0
236_05,236,東が丘団地中,,34.699270,133.980634,236_05,,0
238_02,238,四御神西,,34.698273,133.981890,238_02,,0
238_05,238,四御神西,,34.698317,133.981780,238_05,,0
240_02,240,四御神上,,34.696708,133.982010,240_02,,0
242_02,242,四御神,,34.695075,133.982051,242_02,,0
242_05,242,四御神,,34.695110,133.981989,242_05,,0
244_02,244,竜の口ｺﾐｭﾆﾃｨﾊｳｽ入口,,34.693563,133.981625,244_02,,0
244_05,244,竜の口ｺﾐｭﾆﾃｨﾊｳｽ入口,,34.694044,133.981572,244_05,,0
246_02,246,四御神南,,34.692442,133.981605,246_02,,0
246_05,246,四御神南,,34.692512,133.981528,246_05,,0
248_05,248,四御神車庫,,34.691699,133.981635,248_05,,0
249_05,249,四御神車庫(東岡山),,34.691699,133.981635,249_05,,0
306_03,306,岡山駅前・中銀前,,34.665384,133.920928,306_03,,0
310_04,310,県民局入口,,34.669679,133.926076,310_04,,0
311_04,311,岡電柳川,,34.666869,133.926056,311_04,,0
312_04,312,番町口,,34.672083,133.926139,312_04,,0
312_05,312,番町口,,34.672257,133.926417,312_05,,0
314_04,314,南方交番前,,34.674685,133.926217,314_04,,0
314_05,314,南方交番前,,34.674584,133.926397,314_05,,0
316_04,316,長泉寺,,34.677639,133.927795,316_04,,0
316_05,316,長泉寺,,34.677633,133.928076,316_05,,0
318_04,318,大和町,,34.679696,133.928122,318_04,,0
318_05,318,大和町,,34.679429,133.928318,318_05,,0
319_04,319,御野校前,,34.682891,133.928232,319_04,,0
319_05,319,御野校前,,34.682706,133.928367,319_05,,0
320_04,320,法界院駅前,,34.685329,133.928380,320_04,,0
320_05,320,法界院駅前,,34.685413,133.928540,320_05,,0
322_04,322,植物園口,,34.688677,133.931609,322_04,,0
322_05,322,植物園口,,34.688633,133.931738,322_05,,0
324_04,324,水源池,,34.690881,133.934491,324_04,,0
324_05,324,水源池,,34.690964,133.934752,324_05,,0
326_04,326,三野,,34.693339,133.938376,326_04,,0
326_05,326,三野,,34.693372,133.938620,326_05,,0
328_04,328,江川,,34.700081,133.943411,328_04,,0
328_05,328,江川,,34.700482,133.943719,328_05,,0
330_04,330,原,,34.706439,133.946600,330_04,,0
330_05,330,原,,34.706216,133.946779,330_05,,0
332_04,332,金山口,,34.712526,133.952319,332_04,,0
332_05,332,金山口,,34.711497,133.951562,332_05,,0
334_04,334,玉柏,,34.715020,133.961932,334_04,,0
334_05,334,玉柏,,34.714815,133.962117,334_05,,0
336_04,336,大原橋,,34.717053,133.967310,336_04,,0
336_05,336,大原橋,,34.717710,133.968409,336_05,,0
338_04,338,大原,,34.716931,133.973762,338_04,,0
338_05,338,大原,,34.717270,133.974036,338_05,,0
340_04,340,牟佐下,,34.722427,133.975732,340_04,,0
340_05,340,牟佐下,,34.722531,133.976048,340_05,,0
342_04,342,牟佐上,,34.725049,133.980642,342_04,,0
342_05,342,牟佐上,,34.724912,133.980551,342_05,,0
343_04,343,岡山東部脳神経外科病院前,,34.725741,133.982005,343_04,,0
343_05,343,岡山東部脳神経外科病院前,,34.725717,133.982102,343_05,,0
344_04,344,黒田団地,,34.727395,133.985202,344_04,,0
344_05,344,黒田団地,,34.726962,133.984872,344_05,,0
348_04,348,馬屋下,,34.732132,133.992256,348_04,,0
348_05,348,馬屋下,,34.731896,133.992211,348_05,,0
350_04,350,馬屋,,34.734376,133.996776,350_04,,0
350_05,350,馬屋,,34.733536,133.995666,350_05,,0
351_04,351,新道穂崎下,,34.737143,134.003285,351_04,,0
351_05,351,新道穂崎下,,34.736663,134.001368,351_05,,0
352_04,352,岩田,,34.739332,134.006348,352_04,,0
352_05,352,岩田,,34.739223,134.006521,352_05,,0
353_04,353,新道穂崎,,34.737466,134.006373,353_04,,0
353_05,353,新道穂崎,,34.737032,134.006268,353_05,,0
514_05,514,駅前町,,34.667497,133.919700,514_05,,0
516_05,516,裁判所前,,34.671057,133.923847,516_05,,0
552_04,552,白鷺団地,,34.729027,133.987434,552_04,,0
552_05,552,白鷺団地,,34.728664,133.987211,552_05,,0
560_04,560,山陽団地西１番,,34.743099,134.004445,560_04,,0
560_05,560,山陽団地西１番,,34.743148,134.004777,560_05,,0
562_04,562,山陽団地西２番,,34.743932,134.003047,562_04,,0
562_05,562,山陽団地西２番,,34.744072,134.003007,562_05,,0
564_04,564,山陽団地西３番,,34.745793,134.001436,564_04,,0
564_05,564,山陽団地西３番,,34.745918,134.001510,564_05,,0
566_04,566,足王神社口,,34.748140,134.001558,566_04,,0
566_05,566,足王神社口,,34.747799,134.001605,566_05,,0
568_04,568,山陽団地西４番,,34.749304,134.001611,568_04,,0
568_05,568,山陽団地西４番,,34.749208,134.001669,568_05,,0
570_04,570,山陽団地西５番,,34.751805,134.002564,570_04,,0
570_05,570,山陽団地西５番,,34.751348,134.002512,570_05,,0
572_04,572,山陽団地西６番,,34.752536,134.003662,572_04,,0
572_05,572,山陽団地西６番,,34.752531,134.004025,572_05,,0
574_04,574,山陽団地西７番,,34.752594,134.005857,574_04,,0
574_05,574,山陽団地西７番,,34.752519,134.005961,574_05,,0
586_04,586,山陽団地東,,34.753636,134.008768,586_04,,0
586_05,586,山陽団地東,,34.753510,134.008641,586_05,,0
588_04,588,老人福祉センター,,34.753984,134.010721,588_04,,0
588_05,588,老人福祉センター,,34.753854,134.010514,588_05,,0
590_04,590,下市上,,34.754557,134.014420,590_04,,0
590_05,590,下市上,,34.754423,134.014206,590_05,,0
600_03,600,就実高校中学校前,,34.671340,133.928552,600_03,,0
600_05,600,就実高校中学校前,,34.671144,133.928980,600_05,,0
602_03,602,美術館前,,34.666835,133.930408,602_03,,0
602_05,602,美術館前,,34.666339,133.930659,602_05,,0
604_03,604,弓之町,,34.670564,133.930190,604_03,,0
604_05,604,弓之町,,34.670357,133.930375,604_05,,0
618_03,618,中島,,34.686053,133.944225,618_03,,0
618_05,618,中島,,34.685904,133.944453,618_05,,0
620_03,620,中島上,,34.686355,133.946996,620_03,,0
620_05,620,中島上,,34.686059,133.945430,620_05,,0
622_03,622,高島団地,,34.686068,133.950044,622_03,,0
622_05,622,高島団地,,34.686009,133.950014,622_05,,0
624_03,624,保育所前,,34.684577,133.950760,624_03,,0
624_05,624,保育所前,,34.685261,133.950748,624_05,,0
626_03,626,児童公園前,,34.683169,133.951157,626_03,,0
626_05,626,児童公園前,,34.683098,133.951053,626_05,,0
628_03,628,新屋敷団地西,,34.682921,133.952688,628_03,,0
628_05,628,新屋敷団地西,,34.682872,133.952998,628_05,,0
630_03,630,新屋敷団地中,,34.683084,133.954636,630_03,,0
630_05,630,新屋敷団地中,,34.683022,133.954756,630_05,,0
632_03,632,新屋敷団地,,34.683399,133.958279,632_03,,0
632_05,632,新屋敷団地,,34.683291,133.957938,632_05,,0
634_03,634,中井南,,34.683763,133.962755,634_03,,0
634_05,634,中井南,,34.683640,133.961891,634_05,,0
636_03,636,藤の里,,34.683966,133.965088,636_03,,0
636_05,636,藤の里,,34.683927,133.964876,636_05,,0
638_03,638,雄町西,,34.684194,133.967506,638_03,,0
638_05,638,雄町西,,34.684101,133.966910,638_05,,0
640_03,640,雄町中,,34.684573,133.971424,640_03,,0
640_05,640,雄町中,,34.684410,133.970276,640_05,,0
642_03,642,雄町,,34.685078,133.976676,642_03,,0
642_05,642,雄町,,34.684939,133.975895,642_05,,0
644_03,644,雄町東,,34.685270,133.978951,644_03,,0
644_05,644,雄町東,,34.685212,133.978739,644_05,,0
646_03,646,コウリョー前,,34.685581,133.982107,646_03,,0
646_05,646,コウリョー前,,34.685493,133.981788,646_05,,0
648_03,648,東岡山駅前,,34.685985,133.986050,648_03,,0
648_05,648,東岡山駅前,,34.685830,133.985401,648_05,,0
650_03,650,前土田,,34.688978,133.987812,650_03,,0
650_05,650,前土田,,34.688859,133.987898,650_05,,0
652_03,652,ろう学校前,,34.691908,133.987933,652_03,,0
652_05,652,ろう学校前,,34.692079,133.987985,652_05,,0
658_03,658,岡山東支援学校口,,34.693706,133.987782,658_03,,0
658_05,658,岡山東支援学校口,,34.693975,133.987130,658_05,,0
660_03,660,土田東,,34.693995,133.986062,660_03,,0
660_05,660,土田東,,34.694079,133.985778,660_05,,0
662_03,662,土田,,34.693452,133.982801,662_03,,0
662_05,662,土田,,34.693508,133.983171,662_05,,0
664_03,664,四御神南(東岡山),,34.692443,133.981606,664_03,,0
664_05,664,四御神南(東岡山),,34.692515,133.981530,664_05,,0
670_03,670,浜（岡山プラザホテル前）,,34.671253,133.936237,670_03,,0
670_05,670,浜（岡山プラザホテル前）,,34.671091,133.936263,670_05,,0
672_03,672,岡山中央警察署前,,34.671213,133.939338,672_03,,0
672_05,672,岡山中央警察署前,,34.671069,133.938424,672_05,,0
674_03,674,岡山市中区役所前,,34.671171,133.942218,674_03,,0
674_05,674,岡山市中区役所前,,34.671019,133.942955,674_05,,0
676_03,676,OHKハウジングパーク前,,34.672364,133.943643,676_03,,0
676_05,676,OHKハウジングパーク前,,34.672746,133.943940,676_05,,0
678_03,678,林病院入口,,34.673811,133.943872,678_03,,0
678_05,678,林病院入口,,34.673751,133.944097,678_05,,0
680_03,680,エディオン東川原店前,,34.675134,133.944049,680_03,,0
680_05,680,エディオン東川原店前,,34.675615,133.944336,680_05,,0
682_03,682,コープ東川原店前,,34.676641,133.944118,682_03,,0
682_05,682,コープ東川原店前,,34.676718,133.944322,682_05,,0
684_03,684,ジョイフル東川原店前,,34.678505,133.943854,684_03,,0
684_05,684,ジョイフル東川原店前,,34.678529,133.944116,684_05,,0
686_03,686,西川原,,34.679614,133.942767,686_03,,0
686_05,686,西川原,,34.680007,133.942593,686_05,,0
688_03,688,岡山ハートクリニック前,,34.680741,133.939698,688_03,,0
688_05,688,岡山ハートクリニック前,,34.680917,133.940087,688_05,,0
690_03,690,新中島竹田橋,,34.682421,133.939787,690_03,,0
690_05,690,新中島竹田橋,,34.682317,133.939927,690_05,,0
700_01,700,瀬戸線平島,,34.706419,134.053710,700_01,,0
702_01,702,東平島下,,34.709078,134.050761,702_01,,0
702_05,702,東平島下,,34.708611,134.051159,702_05,,0
704_01,704,パナソニック前,,34.710486,134.050013,704_01,,0
704_05,704,パナソニック前,,34.710290,134.050192,704_05,,0
706_01,706,東平島,,34.712702,134.048800,706_01,,0
706_05,706,東平島,,34.712305,134.049125,706_05,,0
708_01,708,東平島上,,34.715203,134.047561,708_01,,0
708_05,708,東平島上,,34.715086,134.047682,708_05,,0
710_01,710,砂場,,34.718710,134.045711,710_01,,0
710_05,710,砂場,,34.719224,134.045461,710_05,,0
712_01,712,沖下,,34.721462,134.043943,712_01,,0
712_05,712,沖下,,34.721105,134.044278,712_05,,0
714_01,714,瀬戸南高,,34.724181,134.042270,714_01,,0
714_05,714,瀬戸南高,,34.723974,134.042461,714_05,,0
716_01,716,沖,,34.725333,134.041384,716_01,,0
716_05,716,沖,,34.725128,134.041617,716_05,,0
718_01,718,竹久工業前,,34.726779,134.040179,718_01,,0
718_05,718,竹久工業前,,34.726785,134.040252,718_05,,0
720_01,720,瀬戸西,,34.731386,134.037776,720_01,,0
720_05,720,瀬戸西,,34.731960,134.038476,720_05,,0
722_01,722,瀬戸駅前,,34.735071,134.041219,722_01,,0
722_05,722,瀬戸駅前,,34.734715,134.041024,722_05,,0
724_01,724,瀬戸駅,,34.735051,134.041852,724_01,,0
724_05,724,瀬戸駅,,34.734828,134.041775,724_05,,0
726_01,726,赤磐警察署前,,34.737547,134.041666,726_01,,0
726_05,726,赤磐警察署前,,34.737033,134.040722,726_05,,0
728_01,728,瀬戸郵便局前,,34.736712,134.039619,728_01,,0
728_05,728,瀬戸郵便局前,,34.736436,134.038637,728_05,,0
730_01,730,瀬戸橋,,34.736048,134.034030,730_01,,0
730_05,730,瀬戸橋,,34.736489,134.034086,730_05,,0
732_01,732,舟廻,,34.743579,134.029071,732_01,,0
732_05,732,舟廻,,34.742620,134.030248,732_05,,0
734_01,734,立川,,34.746676,134.025951,734_01,,0
734_05,734,立川,,34.746648,134.026249,734_05,,0
736_01,736,医師会病院前,,34.751123,134.020136,736_01,,0
736_05,736,医師会病院前,,34.751227,134.020208,736_05,,0
738_04,738,瀬戸線下市,,34.752533,134.018516,738_04,,0
740_01,740,ネオポリス線下市,,34.753013,134.018095,740_01,,0
740_05,740,ネオポリス線下市,,34.753225,134.018235,740_05,,0
742_01,742,赤磐市役所前,,34.755302,134.019594,742_01,,0
742_05,742,赤磐市役所前,,34.755531,134.019948,742_05,,0
744_01,744,高屋（ネオ）,,34.757743,134.022493,744_01,,0
744_05,744,高屋（ネオ）,,34.757724,134.022529,744_05,,0
746_01,746,高屋上,,34.759119,134.023941,746_01,,0
746_05,746,高屋上,,34.759030,134.023898,746_05,,0
748_01,748,沼田,,34.760914,134.026556,748_01,,0
748_05,748,沼田,,34.760993,134.026721,748_05,,0
750_01,750,二井口,,34.762618,134.028214,750_01,,0
750_05,750,二井口,,34.762505,134.028116,750_05,,0
752_05,752,日古木・中島口,,34.763330,134.033059,752_05,,0
752_06,752,日古木・中島口,,34.763531,134.033106,752_06,,0
754_05,754,桜が丘西一丁目,,34.765634,134.040040,754_05,,0
754_06,754,桜が丘西一丁目,,34.765694,134.039955,754_06,,0
756_05,756,桜が丘西一丁目上,,34.766619,134.041064,756_05,,0
756_06,756,桜が丘西一丁目上,,34.766980,134.041113,756_06,,0
758_05,758,桜が丘西二丁目,,34.767997,134.041907,758_05,,0
758_06,758,桜が丘西二丁目,,34.768675,134.041888,758_06,,0
760_05,760,桜が丘西三丁目,,34.771233,134.040584,760_05,,0
760_06,760,桜が丘西三丁目,,34.771220,134.040386,760_06,,0
762_05,762,桜が丘西三丁目上,,34.772835,134.039284,762_05,,0
762_06,762,桜が丘西三丁目上,,34.772868,134.039074,762_06,,0
764_05,764,桜が丘西五丁目,,34.776670,134.038414,764_05,,0
764_06,764,桜が丘西五丁目,,34.776590,134.038222,764_06,,0
766_05,766,桜が丘西六丁目,,34.777989,134.038261,766_05,,0
766_06,766,桜が丘西六丁目,,34.777936,134.038111,766_06,,0
768_05,768,桜が丘中央,,34.780971,134.038213,768_05,,0
768_06,768,桜が丘中央,,34.780818,134.037996,768_06,,0
770_05,770,桜が丘東五丁目,,34.782738,134.038098,770_05,,0
770_06,770,桜が丘東五丁目,,34.783223,134.038017,770_06,,0
772_05,772,桜が丘東六丁目,,34.785946,134.038593,772_05,,0
772_06,772,桜が丘東六丁目,,34.785010,134.038118,772_06,,0
774_05,774,桜が丘東六丁目上,,34.787808,134.039628,774_05,,0
774_06,774,桜が丘東六丁目上,,34.788428,134.039949,774_06,,0
776_05,776,保育園前,,34.789346,134.040860,776_05,,0
776_06,776,保育園前,,34.789831,134.041189,776_06,,0
778_05,778,野間,,34.790517,134.042186,778_05,,0
780_05,780,桜が丘西10丁目東,,34.781378,134.037639,780_05,,0
780_06,780,桜が丘西10丁目東,,34.781245,134.037394,780_06,,0
782_05,782,桜が丘西10丁目中,,34.781341,134.035757,782_05,,0
782_06,782,桜が丘西10丁目中,,34.781216,134.035477,782_06,,0
784_05,784,桜が丘西10丁目西,,34.780415,134.032801,784_05,,0
784_06,784,桜が丘西10丁目西,,34.780915,134.033721,784_06,,0
786_05,786,桜が丘西９丁目東,,34.779766,134.031664,786_05,,0
786_06,786,桜が丘西９丁目東,,34.779996,134.031901,786_06,,0
788_05,788,桜が丘西９丁目中,,34.779093,134.030421,788_05,,0
788_06,788,桜が丘西９丁目中,,34.778541,134.029646,788_06,,0
790_05,790,桜が丘西９丁目西,,34.777651,134.027496,790_05,,0
790_06,790,桜が丘西９丁目西,,34.778083,134.028451,790_06,,0
792_05,792,桜が丘運動公園口,,34.777321,134.026227,792_05,,0
800_04,800,上市,,34.757163,134.014599,800_04,,0
800_05,800,上市,,34.757028,134.014582,800_05,,0
802_04,802,正崎下,,34.760630,134.013832,802_04,,0
802_05,802,正崎下,,34.760745,134.013908,802_05,,0
804_04,804,正崎,,34.765647,134.012927,804_04,,0
804_05,804,正崎,,34.765653,134.013078,804_05,,0
806_04,806,五日市下,,34.771078,134.012376,806_04,,0
806_05,806,五日市下,,34.769405,134.012750,806_05,,0
808_04,808,五日市上,,34.773509,134.012009,808_04,,0
808_05,808,五日市上,,34.772944,134.012211,808_05,,0
810_04,810,農業試験場口,,34.778063,134.011180,810_04,,0
810_05,810,農業試験場口,,34.778345,134.011201,810_05,,0
812_04,812,東窪田,,34.781887,134.010400,812_04,,0
812_05,812,東窪田,,34.782063,134.010419,812_05,,0
814_04,814,窪田,,34.783962,134.009956,814_04,,0
814_05,814,窪田,,34.784013,134.010032,814_05,,0
816_04,816,窪田上,,34.787823,134.009369,816_04,,0
818_04,818,町苅田下,,34.789546,134.009333,818_04,,0
818_05,818,町苅田下,,34.789115,134.009401,818_05,,0
820_04,820,町苅田,,34.793436,134.006899,820_04,,0
820_05,820,町苅田,,34.793307,134.006987,820_05,,0
822_04,822,赤坂支所前,,34.798346,134.009251,822_04,,0
822_05,822,赤坂支所前,,34.797709,134.008728,822_05,,0
824_04,824,赤坂中学校前,,34.799694,134.010839,824_04,,0
824_05,824,赤坂中学校前,,34.799374,134.010608,824_05,,0
826_04,826,軽部住宅前,,34.801751,134.012926,826_04,,0
826_05,826,軽部住宅前,,34.801291,134.012733,826_05,,0
828_04,828,軽部下,,34.803896,134.014666,828_04,,0
828_05,828,軽部下,,34.803817,134.014707,828_05,,0
830_04,830,軽部上,,34.808402,134.013183,830_04,,0
830_05,830,軽部上,,34.807984,134.013770,830_05,,0
832_04,832,多賀下,,34.818918,134.014189,832_04,,0
832_05,832,多賀下,,34.819274,134.014210,832_05,,0
834_04,834,多賀上,,34.822934,134.011896,834_04,,0
834_05,834,多賀上,,34.822436,134.012395,834_05,,0
836_04,836,出屋,,34.829601,134.012928,836_04,,0
836_05,836,出屋,,34.829306,134.013121,836_05,,0
838_04,838,出屋上,,34.833067,134.011872,838_04,,0
838_05,838,出屋上,,34.832805,134.012092,838_05,,0
840_04,840,坂辺,,34.837612,134.011359,840_04,,0
840_05,840,坂辺,,34.836701,134.011826,840_05,,0
842_04,842,坂辺上,,34.841186,134.010010,842_04,,0
842_05,842,坂辺上,,34.841353,134.010109,842_05,,0
844_04,844,合田下,,34.845850,134.006005,844_04,,0
844_05,844,合田下,,34.846301,134.005930,844_05,,0
846_04,846,合田,,34.852016,134.008423,846_04,,0
846_05,846,合田,,34.852243,134.008640,846_05,,0
848_04,848,合田上,,34.862760,134.008564,848_04,,0
848_05,848,合田上,,34.862789,134.008703,848_05,,0
850_04,850,仁堀下,,34.866137,134.008736,850_04,,0
850_05,850,仁堀下,,34.865580,134.009109,850_05,,0
852_04,852,仁堀,,34.872985,134.012677,852_04,,0
852_05,852,仁堀,,34.873427,134.013047,852_05,,0
854_04,854,仁堀局前,,34.877745,134.017609,854_04,,0
854_05,854,仁堀局前,,34.877630,134.017622,854_05,,0
856_04,856,仁堀上,,34.878583,134.020782,856_04,,0
856_05,856,仁堀上,,34.878453,134.020468,856_05,,0
858_04,858,菊ケ峠,,34.881474,134.029727,858_04,,0
858_05,858,菊ケ峠,,34.881406,134.029915,858_05,,0
860_04,860,塩木上,,34.883060,134.036111,860_04,,0
860_05,860,塩木上,,34.883040,134.035997,860_05,,0
862_04,862,塩木中,,34.883371,134.042663,862_04,,0
862_05,862,塩木中,,34.882722,134.041223,862_05,,0
864_04,864,塩木下,,34.884946,134.047542,864_04,,0
864_05,864,塩木下,,34.884622,134.046880,864_05,,0
866_04,866,湯免温泉,,34.887485,134.057402,866_04,,0
866_05,866,湯免温泉,,34.887487,134.057893,866_05,,0
868_04,868,佐伯北,,34.890950,134.064470,868_04,,0
868_05,868,佐伯北,,34.890730,134.064287,868_05,,0
870_04,870,吉井総合センター,,34.892973,134.070003,870_04,,0
870_05,870,吉井総合センター,,34.892840,134.069426,870_05,,0
872_04,872,高田,,34.894317,134.072780,872_04,,0
872_05,872,高田,,34.894290,134.072890,872_05,,0
874_04,874,稲蒔,,34.896770,134.082280,874_04,,0
874_05,874,稲蒔,,34.896796,134.082647,874_05,,0
876_04,876,福田住宅前,,34.903525,134.083790,876_04,,0
876_05,876,福田住宅前,,34.904711,134.084227,876_05,,0
878_04,878,福田,,34.908652,134.087046,878_04,,0
878_05,878,福田,,34.908391,134.086963,878_05,,0
880_04,880,山方口,,34.912623,134.090200,880_04,,0
880_05,880,山方口,,34.912217,134.089991,880_05,,0
882_04,882,吉井中学校前,,34.917316,134.092998,882_04,,0
882_05,882,吉井中学校前,,34.917170,134.092970,882_05,,0
884_04,884,周匝,,34.918840,134.093807,884_04,,0
884_05,884,周匝,,34.918515,134.093692,884_05,,0
886_04,886,周匝上,,34.921141,134.096396,886_04,,0
886_05,886,周匝上,,34.920624,134.095661,886_05,,0
888_04,888,落合,,34.923703,134.102554,888_04,,0
888_05,888,落合,,34.923734,134.102803,888_05,,0
890_04,890,高下,,34.926482,134.107607,890_04,,0
892_04,892,奥,,34.927264,134.111536,892_04,,0
892_05,892,奥,,34.927207,134.111395,892_05,,0
894_04,894,奥上,,34.928151,134.112948,894_04,,0
894_05,894,奥上,,34.928167,134.113127,894_05,,0
896_04,896,天神,,34.930804,134.118709,896_04,,0
896_05,896,天神,,34.930516,134.118350,896_05,,0
898_04,898,王子橋,,34.932862,134.122113,898_04,,0
898_05,898,王子橋,,34.933088,134.122299,898_05,,0
900_04,900,福本下,,34.935433,134.122284,900_04,,0
900_05,900,福本下,,34.935996,134.122480,900_05,,0
902_04,902,福本,,34.938060,134.123116,902_04,,0
902_05,902,福本,,34.937721,134.123079,902_05,,0
904_04,904,小原,,34.941120,134.125268,904_04,,0
904_05,904,小原,,34.941144,134.125573,904_05,,0
906_04,906,椿谷,,34.943889,134.135396,906_04,,0
906_05,906,椿谷,,34.944122,134.135803,906_05,,0
908_04,908,尾谷,,34.948404,134.135843,908_04,,0
908_05,908,尾谷,,34.948224,134.135937,908_05,,0
910_04,910,尾原,,34.955148,134.132863,910_04,,0
910_05,910,尾原,,34.955130,134.133091,910_05,,0
912_04,912,尾原上,,34.957957,134.129384,912_04,,0
912_05,912,尾原上,,34.957788,134.129526,912_05,,0
914_04,914,樫村,,34.965569,134.133996,914_04,,0
914_05,914,樫村,,34.965578,134.134148,914_05,,0
916_04,916,下倉敷,,34.975361,134.126338,916_04,,0
916_05,916,下倉敷,,34.975581,134.125903,916_05,,0
918_04,918,畑沖下,,34.982932,134.127287,918_04,,0
918_05,918,畑沖下,,34.983565,134.127663,918_05,,0
920_04,920,畑沖,,34.985940,134.128566,920_04,,0
920_05,920,畑沖,,34.985991,134.128684,920_05,,0
922_04,922,鷺湯橋,,34.991199,134.133826,922_04,,0
922_05,922,鷺湯橋,,34.991144,134.133472,922_05,,0
924_04,924,湯郷温泉下,,34.991405,134.134926,924_04,,0
924_05,924,湯郷温泉下,,34.991244,134.134862,924_05,,0
926_04,926,湯郷温泉上,,34.993651,134.139602,926_04,,0
926_05,926,湯郷温泉上,,34.993439,134.139519,926_05,,0
928_04,928,美作第一小学校前,,34.997022,134.141632,928_04,,0
928_05,928,美作第一小学校前,,34.997219,134.141866,928_05,,0
930_04,930,林野バスセンター,,35.002809,134.143887,930_04,,0
930_05,930,林野バスセンター,,35.002710,134.143933,930_05,,0
932_04,932,本町,,35.002916,134.146052,932_04,,0
932_05,932,本町,,35.003756,134.146618,932_05,,0
934_04,934,栄町,,35.008588,134.149330,934_04,,0
934_05,934,栄町,,35.008564,134.149386,934_05,,0
936_05,936,林野駅前,,35.012672,134.150939,936_05,,0
946_04,946,新道立川口,,34.741955,134.015569,946_04,,0
946_05,946,新道立川口,,34.741382,134.015439,946_05,,0
948_04,948,新道河本西,,34.744900,134.016621,948_04,,0
948_05,948,新道河本西,,34.743999,134.016559,948_05,,0
950_04,950,新道河本,,34.746690,134.017144,950_04,,0
950_05,950,新道河本,,34.746135,134.017180,950_05,,0
952_04,952,新道山陽マルナカ前,,34.749265,134.017940,952_04,,0
952_05,952,新道山陽マルナカ前,,34.748550,134.017892,952_05,,0
954_04,954,新道赤磐市役所入口,,34.753525,134.021512,954_04,,0
954_05,954,新道赤磐市役所入口,,34.753392,134.021662,954_05,,0
956_04,956,新道高屋,,34.756636,134.024493,956_04,,0
956_05,956,新道高屋,,34.757423,134.025410,956_05,,0
958_04,958,新道高屋上,,34.758052,134.025801,958_04,,0
958_05,958,新道高屋上,,34.757416,134.025405,958_05,,0
960_04,960,新道沼田,,34.760448,134.028165,960_04,,0
960_05,960,新道沼田,,34.759796,134.027683,960_05,,0
962_04,962,新道二井口,,34.762135,134.030556,962_04,,0
962_05,962,新道二井口,,34.761847,134.030358,962_05,,0
1576_04,1576,山陽団地中１番,,34.744453,134.005185,1576_04,,0
1576_05,1576,山陽団地中１番,,34.744254,134.005408,1576_05,,0
1578_04,1578,山陽団地郵便局前,,34.746126,134.005368,1578_04,,0
1578_05,1578,山陽団地郵便局前,,34.745964,134.005478,1578_05,,0
1580_04,1580,山陽団地中２番,,34.747626,134.005437,1580_04,,0
1580_05,1580,山陽団地中２番,,34.747433,134.005533,1580_05,,0
1582_04,1582,山陽西小学校前,,34.750197,134.005589,1582_04,,0
1582_05,1582,山陽西小学校前,,34.749867,134.005664,1582_05,,0
1584_04,1584,山陽団地中３番,,34.751822,134.005837,1584_04,,0
1584_05,1584,山陽団地中３番,,34.751813,134.006048,1584_05,,0
2086_01,2086,下市,,34.753548,134.017029,2086_01,,0
2086_02,2086,下市,,34.754125,134.016504,2086_02,,0
9512_03,9512,県民局入口（東岡山）,,34.669676,133.926080,9512_03,,0
9513_03,9513,岡電柳川（東岡山）,,34.666869,133.926056,9513_03,,0
